[
  {
    "ID": 1,
    "Title": "Smyth Jewelers",
    "Address": "2020 York Road  Timonium, MD 21093",
    "URL": "http://www.smythjewelers.com/",
    "Phone": "(410) 252-6666",
    "Longitude": -76.6258472,
    "Latitude": 39.4372182,
    "Status": "Disable"
  },
  {
    "ID": 2,
    "Title": "George Walton's Gold &amp; Diamond Co.",
    "Address": "4300 Old Seward Hwy., Anchorage, AK 99503",
    "URL": "http://www.gwgoldanddiamond.com",
    "Phone": "(907) 562-2571",
    "Longitude": -149.8688415,
    "Latitude": 61.1812022,
    "Status": "Disable"
  },
  {
    "ID": 6,
    "Title": "Bryant &amp; Sons, Ltd.",
    "Address": "812 State St., Santa Barbara, CA 93101",
    "URL": "http://www.bryantandsons.com",
    "Phone": "(805) 966-9187",
    "Longitude": -119.6998413,
    "Latitude": 34.4201602,
    "Status": "Disable"
  },
  {
    "ID": 15,
    "Title": "Johnson Jewelers",
    "Address": "5860 N Mesa #118, El Paso, TX 79912",
    "URL": "http://www.johnsonjewelers.net",
    "Phone": "(915) 833-1415",
    "Longitude": -106.5238367,
    "Latitude": 31.8264933,
    "Status": "Disable"
  },
  {
    "ID": 21,
    "Title": "Windsor Jewelers",
    "Address": "2635 Washington Rd., Augusta, GA 30904",
    "URL": "http://www.windsorfinejewelers.com",
    "Phone": "(800) 605-1060",
    "Longitude": -82.0213336,
    "Latitude": 33.5082425,
    "Status": "Disable"
  },
  {
    "ID": 22,
    "Title": "Bailey's Fine Jewelry",
    "Address": "415 Daniels St., Raleigh, NC 27605",
    "URL": "http://www.baileybox.com",
    "Phone": "(866) 725-3111",
    "Longitude": -78.6611323,
    "Latitude": 35.7892885,
    "Status": "Enable"
  },
  {
    "ID": 36,
    "Title": "Jones Bros. Jewelers",
    "Address": "7705 North Grand Prairie Drive  Peoria, IL 61615",
    "URL": "http://www.jonesbros.com",
    "Phone": "(309) 692-3228",
    "Longitude": -89.676292,
    "Latitude": 40.781248,
    "Status": "Enable"
  },
  {
    "ID": 41,
    "Title": "Shelia Bayes Fine Jewelers",
    "Address": "401 W Vine St.  Lexington, KY 40507",
    "URL": "http://www.sheliabayes.com",
    "Phone": "(859) 225-4043",
    "Longitude": -84.5013581,
    "Latitude": 38.0502232,
    "Status": "Disable"
  },
  {
    "ID": 49,
    "Title": "Diamonds Direct Southpark",
    "Address": "4521 Sharon Rd,  Charlotte, NC 28211",
    "URL": "http://www.diamonds-direct.com/Diamonds-Direct-Southpark.asp",
    "Phone": "(888) 400-4447",
    "Longitude": -80.828645,
    "Latitude": 35.150709,
    "Status": "Enable"
  },
  {
    "ID": 66,
    "Title": "Lewis Jewelers",
    "Address": "2000 West Stadium Blvd.  Ann Arbor, MI 48103",
    "URL": "www.lewisjewelers.com",
    "Phone": "734-994-5111",
    "Longitude": -83.7735575,
    "Latitude": 42.2701008,
    "Status": "Enable"
  },
  {
    "ID": 73,
    "Title": "E.B. Horn Jewelers",
    "Address": "429 Washington St  Boston, MA 02108",
    "URL": "http://www.ebhorn.com/",
    "Phone": "(617) 542-3902",
    "Longitude": -71.0603767,
    "Latitude": 42.3555972,
    "Status": "Enable"
  },
  {
    "ID": 74,
    "Title": "Diamonds Direct Birmingham",
    "Address": "2800 Cahaba Village Plaza,  Birmingham, AL 35243",
    "URL": "http://www.diamonds-direct.com/Diamonds-Direct-birmingham.asp",
    "Phone": "205-201-7400",
    "Longitude": -86.753723,
    "Latitude": 33.461244,
    "Status": "Enable"
  },
  {
    "ID": 75,
    "Title": "Diamonds Direct Crabtree",
    "Address": "4401 Glenwood Avenue,  Raleigh, NC 27612",
    "URL": "http://www.diamonds-direct.com/Diamonds-Direct-Raleigh.asp",
    "Phone": "919-571-2881",
    "Longitude": -78.676462,
    "Latitude": 35.839189,
    "Status": "Enable"
  },
  {
    "ID": 86,
    "Title": "Albriton's Jewelry",
    "Address": "4500 I 55 N STE 184  Jackson, MS 39211",
    "URL": "www.albritons.com",
    "Phone": "601-982-4020",
    "Longitude": -90.1505073,
    "Latitude": 32.3551793,
    "Status": "Disable"
  },
  {
    "ID": 88,
    "Title": "BC Clark",
    "Address": "1901 NW Expressway, Suite 1020  Oklahoma City, OK  73118",
    "URL": "www.bcclark.com",
    "Phone": "(405) 840-1441",
    "Longitude": -97.544552,
    "Latitude": 35.5250031,
    "Status": "Disable"
  },
  {
    "ID": 90,
    "Title": "Beard's Jewelry",
    "Address": "4845 Towncenter Parkway  Jacksonville, FL 32246",
    "URL": "http://beardsdiamonds.com/",
    "Phone": "904-996-1406",
    "Longitude": -81.531229,
    "Latitude": 30.2545499,
    "Status": "Disable"
  },
  {
    "ID": 104,
    "Title": "Ream Jewelers",
    "Address": "58 North Queen Street  Lancaster, PA 17603",
    "URL": "www.reamjewelers.com",
    "Phone": "717-392-7305",
    "Longitude": -76.3061269,
    "Latitude": 40.0393154,
    "Status": "Disable"
  },
  {
    "ID": 107,
    "Title": "J. Thomas Jewelers",
    "Address": "270 South Sparta Avenue  Sparta, NJ 07871",
    "URL": "www.jthomasjewelers.net",
    "Phone": "973-729-4969",
    "Longitude": -74.6630767,
    "Latitude": 41.0339772,
    "Status": "Enable"
  },
  {
    "ID": 110,
    "Title": "Payne Anthony Creative Jewelers",
    "Address": "329 Trolley Square, Salt Lake City, UT 84102",
    "URL": "http://www.payneanthony.com/",
    "Phone": "(801) 328-0944",
    "Longitude": -111.871542,
    "Latitude": 40.757492,
    "Status": "Enable"
  },
  {
    "ID": 120,
    "Title": "Solomon Brothers",
    "Address": "3340 Peachtree Road NE  Tower Place 100, Suite 1700  Atlanta, GA 30326-1080",
    "URL": "http://www.solomonbrothers.com/",
    "Phone": "800.781.8883",
    "Longitude": -84.3708924,
    "Latitude": 33.8473034,
    "Status": "Enable"
  },
  {
    "ID": 121,
    "Title": "Smyth Jewelers",
    "Address": "Annapolis Towne Centre at Parole  1910 Towne Centre Blvd.  Annapolis, MD 21401",
    "URL": "http://www.smythjewelers.com",
    "Phone": "(443) 321-0300",
    "Longitude": -76.5400824,
    "Latitude": 38.9808979,
    "Status": "Disable"
  },
  {
    "ID": 122,
    "Title": "Smyth Jewelers",
    "Address": "Turf Valley Towne Square  11089 Resort Rd #200  Ellicott City, MD 21042",
    "URL": "http://www.smythjewelers.com",
    "Phone": "(410) 461-4044",
    "Longitude": -76.8967923,
    "Latitude": 39.2992892,
    "Status": "Disable"
  },
  {
    "ID": 128,
    "Title": "Gunderson's Jewelers",
    "Address": "4830 Sergeant Rd  Sioux City, IA 51106",
    "URL": "http://www.gunderson.com/",
    "Phone": "(605) 338-9060",
    "Longitude": -96.3445018,
    "Latitude": 42.4450132,
    "Status": "Enable"
  },
  {
    "ID": 129,
    "Title": "Wickersham Company Jewelers",
    "Address": "7784 N. Blackstone Ave.  Fresno, CA 93720",
    "URL": "http://www.wickershamcompany.com/",
    "Phone": "559-803-6521",
    "Longitude": -119.790686,
    "Latitude": 36.849527,
    "Status": "Enable"
  },
  {
    "ID": 130,
    "Title": "Wickersham Company Jewelers",
    "Address": "6521 Truxtun Avenue  Bakersfield, CA 93309",
    "URL": "http://www.wickershamcompany.com/",
    "Phone": "661-324-6521",
    "Longitude": -119.076174,
    "Latitude": 35.361295,
    "Status": "Enable"
  },
  {
    "ID": 131,
    "Title": "Manfredi",
    "Address": "72 Elm Street  New Canaan, CT 06840",
    "URL": "http://www.manfredijewels.com/",
    "Phone": "(203) 966-8705",
    "Longitude": -73.4936299,
    "Latitude": 41.146705,
    "Status": "Disable"
  },
  {
    "ID": 132,
    "Title": "Alexanders Jewelers",
    "Address": "689 North High Street   Columbus, OH 43215",
    "URL": "http://www.alexandersjewelersofohio.com/",
    "Phone": "(614) 233-6666",
    "Longitude": -83.003664,
    "Latitude": 39.976442,
    "Status": "Enable"
  },
  {
    "ID": 133,
    "Title": "Buchwald Jewelers",
    "Address": "36 NE 1st St Suite 123  Miami, FL 33132",
    "URL": "http://www.buchwaldjewelers.com/",
    "Phone": "(305) 417-6131",
    "Longitude": -80.192832,
    "Latitude": 25.7750371,
    "Status": "Disable"
  },
  {
    "ID": 140,
    "Title": "Raymond Lee Jewelers",
    "Address": "Boca Raton Palms Plaza  22191 Powerline Road #12b  Boca Raton, FL 33433",
    "URL": "http://raymondleejewelers.net/",
    "Phone": "(561) 750-7808; 1(800) 329-4367",
    "Longitude": -80.1548117,
    "Latitude": 26.3470476,
    "Status": "Disable"
  },
  {
    "ID": 141,
    "Title": "The Gallery Estate and Precious Jewels",
    "Address": "4320 Gulfshore Blvd. N. Suite 211   Naples FL 34103",
    "URL": "http://www.galleryestatejewelry.com/",
    "Phone": "(239) 434-7070",
    "Longitude": -81.8118371,
    "Latitude": 26.1974889,
    "Status": "Disable"
  },
  {
    "ID": 142,
    "Title": "Dearborn Jewelers of Plymouth",
    "Address": "805 W. Ann Arbor Trail  Plymouth, MI 48170",
    "URL": "http://dearbornjewelers.com/",
    "Phone": "(734) 737-9525",
    "Longitude": -83.4699986,
    "Latitude": 42.3697341,
    "Status": "Disable"
  },
  {
    "ID": 145,
    "Title": "Fuenfer Jewelers Inc.",
    "Address": "124 Skokie Blvd  Wilmette, IL 60091",
    "URL": "http://www.fuenferjewelers.com/",
    "Phone": "(847) 256-9444",
    "Longitude": -87.745718,
    "Latitude": 42.0658358,
    "Status": "Disable"
  },
  {
    "ID": 152,
    "Title": "Wilson's Jewelers",
    "Address": "11941 U.S. Highway One North  North Palm Beach, Florida 33408",
    "URL": "http://ogwilsonandsonsjewelers.com/",
    "Phone": "(561) 775-2022",
    "Longitude": -80.0595386,
    "Latitude": 26.8490691,
    "Status": "Disable"
  },
  {
    "ID": 153,
    "Title": "Willis Fine Jewelry",
    "Address": "2845 Ridge Rd # 201  Rockwall, TX 75032",
    "URL": "http://www.willisfinejewelry.com/",
    "Phone": "(972) 771-1500",
    "Longitude": -96.470081,
    "Latitude": 32.893501,
    "Status": "Enable"
  },
  {
    "ID": 159,
    "Title": "Ft. Thomas Jewelers",
    "Address": "2780 Alexandria Way  Highland Heights, KY 41076",
    "URL": "http://www.ftthomasjewelers.com/",
    "Phone": "(859) 442-0506",
    "Longitude": -84.4519776,
    "Latitude": 39.0325026,
    "Status": "Disable"
  },
  {
    "ID": 161,
    "Title": "Michael Agnello Jewelers",
    "Address": "31500 Harper Ave  St Clair Shores, MI 48082",
    "URL": "http://www.michaelagnellojewelers.com/",
    "Phone": "(586) 294-7730",
    "Longitude": -82.892605,
    "Latitude": 42.527099,
    "Status": "Enable"
  },
  {
    "ID": 163,
    "Title": "Bennet Valley Jewelers",
    "Address": "2700 Yulupa Ave #18  Santa Rosa, CA 95405",
    "URL": "http://www.bennettvalleyjewelers.com/",
    "Phone": "(707) 523-1333",
    "Longitude": -122.6679963,
    "Latitude": 38.4276863,
    "Status": "Disable"
  },
  {
    "ID": 167,
    "Title": "Waterfall Jewelers",
    "Address": "340 Town Center Blvd  White Lake, MI 48386",
    "URL": "http://www.waterfalljewelers.com/",
    "Phone": "(248) 698-1200",
    "Longitude": -83.4999392,
    "Latitude": 42.6489167,
    "Status": "Disable"
  },
  {
    "ID": 184,
    "Title": "Benchmark Jewelers",
    "Address": "13500 Pearl Road   Strongsvile, Ohio 44136",
    "URL": "http://www.benchmarkjewelrydesigns.com/",
    "Phone": "(440) 238-9865; (800) 806-8691",
    "Longitude": -81.8358322,
    "Latitude": 41.3159618,
    "Status": "Disable"
  },
  {
    "ID": 185,
    "Title": "Gunderson's Jewelers",
    "Address": "2109 W 57th St  Sioux Falls, SD 57108",
    "URL": "http://www.gundersons.com/",
    "Phone": "(605) 338-9060",
    "Longitude": -96.749692,
    "Latitude": 43.500078,
    "Status": "Enable"
  },
  {
    "ID": 186,
    "Title": "Gunderson's Jewelers",
    "Address": "17255 Davenport St #111  Omaha, NE 68118",
    "URL": "http://www.gundersons.com/",
    "Phone": "(402) 935-6332",
    "Longitude": -96.1842308,
    "Latitude": 41.2603561,
    "Status": "Enable"
  },
  {
    "ID": 187,
    "Title": "B &amp; J Fine Jewelry",
    "Address": "625 S Hill St  Los Angeles, CA 90014",
    "URL": "",
    "Phone": "213-623-6042",
    "Longitude": -118.25387,
    "Latitude": 34.046981,
    "Status": "Enable"
  },
  {
    "ID": 188,
    "Title": "Diamonds Direct Richmond",
    "Address": "11131 West Broad Street,  Glen Allen, VA 23060",
    "URL": "http://www.diamonds-direct.com/Diamonds-Direct-Richmond.asp",
    "Phone": "(804) 967-0500",
    "Longitude": -77.603997,
    "Latitude": 37.647769,
    "Status": "Enable"
  },
  {
    "ID": 189,
    "Title": "Diamonds Direct Austin",
    "Address": "11104 Domain Drive,  Austin, TX 78758",
    "URL": "http://www.diamonds-direct.com/Diamonds-Direct-Austin.asp",
    "Phone": "(512) 691-9950",
    "Longitude": -97.726478,
    "Latitude": 30.396347,
    "Status": "Enable"
  },
  {
    "ID": 192,
    "Title": "Heritage Jewelers",
    "Address": "1115 E 9th St   Lockport, IL 60441",
    "URL": "http://www.lockportjewelryshop.com/",
    "Phone": "815-552-0506",
    "Longitude": -88.0358215,
    "Latitude": 41.5960312,
    "Status": "Disable"
  },
  {
    "ID": 193,
    "Title": "Jon Paul Jewelers",
    "Address": "3353/55 Galt Ocean Dr  Fort Lauderdale, FL 33308",
    "URL": "http://jonpauljewelers.com/",
    "Phone": "(954) 564-4221",
    "Longitude": -80.0994654,
    "Latitude": 26.1698517,
    "Status": "Disable"
  },
  {
    "ID": 194,
    "Title": "Pacific Diamond",
    "Address": "1356 Kapiolani Blvd  Honolulu, HI 96814",
    "URL": "http://www.pacificdiamondswisswatch.com/",
    "Phone": "(808) 943-1000",
    "Longitude": -157.8445619,
    "Latitude": 21.2942152,
    "Status": "Disable"
  },
  {
    "ID": 195,
    "Title": "Pacific Diamond",
    "Address": "Waimalu Plaza  98-1277 Kaahumanu Street #114  Aiea, HI 96701",
    "URL": "http://www.pacificdiamondswisswatch.com/",
    "Phone": "(808) 777-5500",
    "Longitude": -157.9520294,
    "Latitude": 21.3897604,
    "Status": "Disable"
  },
  {
    "ID": 196,
    "Title": "Springer's Jewelers",
    "Address": "580 Congress St.  Portland, ME 04101",
    "URL": "http://www.springersjewelers.com/",
    "Phone": "800-725-5404",
    "Longitude": -70.2623322,
    "Latitude": 43.6545083,
    "Status": "Disable"
  },
  {
    "ID": 197,
    "Title": "Springer's Jewelers",
    "Address": "76 Front St  Bath, ME 04530",
    "URL": "http://www.springersjewelers.com/",
    "Phone": "800-725-2181",
    "Longitude": -69.8143189,
    "Latitude": 43.9130053,
    "Status": "Disable"
  },
  {
    "ID": 198,
    "Title": "Springer's Jewelers",
    "Address": "100 Market St.   Portsmouth, NH 03801",
    "URL": "http://www.springersjewelers.com/",
    "Phone": "888-831-4367",
    "Longitude": -70.758198,
    "Latitude": 43.0784715,
    "Status": "Disable"
  },
  {
    "ID": 199,
    "Title": "Shannon Fine Jewelry - Champions",
    "Address": "6944 Cypress Creek Pkwy.  Houston, Texas 77069",
    "URL": "http://shannonfj.com/",
    "Phone": "281-893-1175",
    "Longitude": -95.5326526,
    "Latitude": 29.9695217,
    "Status": "Disable"
  },
  {
    "ID": 200,
    "Title": "Shannon Fine Jewelry - The Woodlands",
    "Address": "1440 Lake Woodlands Drive, Ste I  The Woodlands, Texas 77380",
    "URL": "http://shannonfj.com/",
    "Phone": "281-364-7172",
    "Longitude": -95.4573865,
    "Latitude": 30.1689674,
    "Status": "Disable"
  },
  {
    "ID": 203,
    "Title": "Waterfall Jewelers",
    "Address": "5649 Dixie Highway  Waterford, MI 48329",
    "URL": "http://www.waterfalljewelers.com/",
    "Phone": "(248) 623-9422",
    "Longitude": -83.4012007,
    "Latitude": 42.6999861,
    "Status": "Disable"
  },
  {
    "ID": 204,
    "Title": "Grand Jewelers",
    "Address": "8185 Holly Road  Grand Blanc, MI",
    "URL": "http://www.grandjewelersgrandblanc.com",
    "Phone": "(810) 603-0055",
    "Longitude": -83.6232982,
    "Latitude": 42.9113996,
    "Status": "Disable"
  },
  {
    "ID": 206,
    "Title": "Phillips Jewelry",
    "Address": "285 S Calderwood St  Alcoa, TN 37701-2102",
    "URL": "https://www.facebook.com/PhillipsJewelry",
    "Phone": "(865) 983-3334",
    "Longitude": -83.9755562,
    "Latitude": 35.7605864,
    "Status": "Disable"
  },
  {
    "ID": 208,
    "Title": "Bopie's Diamonds and Fine Jewelry",
    "Address": "4914 Yadkin Rd  Fayetteville, NC 28303",
    "URL": "http://www.bopies.com/",
    "Phone": "(910) 860-4884",
    "Longitude": -78.9660316,
    "Latitude": 35.083284,
    "Status": "Disable"
  },
  {
    "ID": 211,
    "Title": "Anthony Robert Jewelers",
    "Address": "250 W Rte 59, Nanuet, NY 10954",
    "URL": "http://anthonyrobertjewelers.com/",
    "Phone": "(845) 624-1222",
    "Longitude": -74.0222547,
    "Latitude": 41.1012556,
    "Status": "Disable"
  },
  {
    "ID": 212,
    "Title": "Benqueils Jewelry",
    "Address": "301 Madison Square Shop  South Main Street  London, KY 40741",
    "URL": "http://www.benqueils.com/",
    "Phone": "(606) 878-9521",
    "Longitude": -84.0749824,
    "Latitude": 37.1166122,
    "Status": "Disable"
  },
  {
    "ID": 213,
    "Title": "Bradley's Jewelers",
    "Address": "14261 S Tamiami Trail  Fort Myers, FL 33912",
    "URL": "http://www.bradleys-jewelers.com/",
    "Phone": "(239) 337-2723",
    "Longitude": -81.8702831,
    "Latitude": 26.535365,
    "Status": "Disable"
  },
  {
    "ID": 215,
    "Title": "C.D.Peacock",
    "Address": "172 Oakbrook Center  Oak Brook, IL 60523",
    "URL": "http://www.cdpeacock.com/",
    "Phone": "(630) 571-5355",
    "Longitude": -87.9528361,
    "Latitude": 41.8489003,
    "Status": "Disable"
  },
  {
    "ID": 216,
    "Title": "Carolina Fine Jewelry",
    "Address": "4708 Forest Dr  Columbia, SC 29206",
    "URL": "http://www.carolinafinejewelry.com/",
    "Phone": "(803) 736-0415",
    "Longitude": -80.9699032,
    "Latitude": 34.019124,
    "Status": "Disable"
  },
  {
    "ID": 219,
    "Title": "Studio 247 Fine Jewelry",
    "Address": "247 S Nicolet Rd, Appleton, WI 54914",
    "URL": "http://www.studio247finejewelry.com/",
    "Phone": "920.903.8716",
    "Longitude": -88.4698675,
    "Latitude": 44.2597456,
    "Status": "Disable"
  },
  {
    "ID": 225,
    "Title": "James Wolf Jewelers",
    "Address": "Deerfield Towne Center  5375 Deerfield Blvd  Mason, OH 45040",
    "URL": "http://www.jameswolfjewelers.com/",
    "Phone": "(513) 770-4321",
    "Longitude": -84.3169114,
    "Latitude": 39.3070657,
    "Status": "Disable"
  },
  {
    "ID": 230,
    "Title": "Oscar's Jewelers",
    "Address": "3460 S Halsted St  Chicago, IL 60608",
    "URL": "http://www.oscarswatchandjewelry.com/",
    "Phone": "(773) 376-5444",
    "Longitude": -87.646448,
    "Latitude": 41.830941,
    "Status": "Disable"
  },
  {
    "ID": 231,
    "Title": "Provident Jewelry",
    "Address": "541 5th Ave S  Naples, FL 34102",
    "URL": "http://providentjewelry.com/jewelry-and-watch-store-naples-i-fl-34102",
    "Phone": "(239) 649-7737",
    "Longitude": -81.7997075,
    "Latitude": 26.1415288,
    "Status": "Disable"
  },
  {
    "ID": 233,
    "Title": "S.E. Joseph Jewelers",
    "Address": "1633 San Marco Blvd  Jacksonville, FL 32207",
    "URL": "http://sejosephjewelers.com/",
    "Phone": "(904) 398-1333",
    "Longitude": -81.6602464,
    "Latitude": 30.3081422,
    "Status": "Disable"
  },
  {
    "ID": 235,
    "Title": "Straith's Jewelry",
    "Address": "126 S Locust St  Centralia, IL 62801",
    "URL": "https://www.facebook.com/Straiths-Jewelry-115761511774611/timeline/",
    "Phone": "(618) 532-4141",
    "Longitude": -89.1347766,
    "Latitude": 38.5270274,
    "Status": "Disable"
  },
  {
    "ID": 236,
    "Title": "Stuart Jewelers",
    "Address": "47 SW Osceola St # 101  Stuart, FL 34994",
    "URL": "",
    "Phone": "(772) 223-7090",
    "Longitude": -80.2539487,
    "Latitude": 27.1996222,
    "Status": "Disable"
  },
  {
    "ID": 237,
    "Title": "Village Jewelers",
    "Address": "260 Front Street, Suite 610   Ponte Vedra Beach, FL 32082",
    "URL": "http://www.villagejewelerofpontevedra.com/",
    "Phone": "904.285.4812",
    "Longitude": -81.3852595,
    "Latitude": 30.2400058,
    "Status": "Disable"
  },
  {
    "ID": 238,
    "Title": "Zak's Jewelry",
    "Address": "1314 Cape Coral Pkwy East  Cape Coral FL 33904",
    "URL": "http://www.zaksjewelry.com/",
    "Phone": "(239) 542-7766",
    "Longitude": -81.9481421,
    "Latitude": 26.562326,
    "Status": "Disable"
  },
  {
    "ID": 240,
    "Title": "Lenkersdorfer Fine Jewelers",
    "Address": "8053 Tysons Corner Center  McLean, VA 22102",
    "URL": "http://www.lenkersdorfer.com/",
    "Phone": "(703) 506-6712",
    "Longitude": -77.2213974,
    "Latitude": 38.9165993,
    "Status": "Disable"
  },
  {
    "ID": 242,
    "Title": "Powers Jewelry Designers",
    "Address": "301 E Wisconsin Ave  Milwaukee, WI 53202",
    "URL": "http://www.milwaukee-jewelry.com/",
    "Phone": "(414) 272-4510",
    "Longitude": -87.9074418,
    "Latitude": 43.0384455,
    "Status": "Disable"
  },
  {
    "ID": 250,
    "Title": "Martin Jewelers",
    "Address": "12 N Ave W  Cranford, NJ 07016",
    "URL": "http://martinjewelers.com/",
    "Phone": "(908) 276-6718",
    "Longitude": -74.3046942,
    "Latitude": 40.6559471,
    "Status": "Disable"
  },
  {
    "ID": 255,
    "Title": "Rogers &amp; Hollands Jewelers",
    "Address": "Old Orchard Shopping Center  4999 Old Orchard Center East Ring Rd  A18  Skokie, IL 60077",
    "URL": "https://www.rogersandhollands.com/",
    "Phone": "(847) 329-7200",
    "Longitude": -87.7493701,
    "Latitude": 42.0587692,
    "Status": "Disable"
  },
  {
    "ID": 256,
    "Title": "Rogers &amp; Hollands Jewelers",
    "Address": "448 Oakbrook Center  Oak Brook, IL 60523",
    "URL": "https://www.rogersandhollands.com/",
    "Phone": "(630) 571-7400",
    "Longitude": -87.9522096,
    "Latitude": 41.8520573,
    "Status": "Disable"
  },
  {
    "ID": 257,
    "Title": "Ashcroft &amp; Oak Jewelers",
    "Address": "Polaris Fashion Place  1500 Polaris Pkwy, Suite 2110  Columbus, OH 43240",
    "URL": "https://www.rogersandhollands.com/",
    "Phone": "(614) 888-7888",
    "Longitude": -82.9820447,
    "Latitude": 40.145613,
    "Status": "Disable"
  },
  {
    "ID": 259,
    "Title": "Rogers &amp; Hollands Jewelers",
    "Address": "Mall of America  146 West Market  Bloomington, MN 55425",
    "URL": "https://www.rogersandhollands.com/",
    "Phone": "(952) 814-9400",
    "Longitude": -93.2422148,
    "Latitude": 44.8548651,
    "Status": "Disable"
  },
  {
    "ID": 261,
    "Title": "J Vincent Jewelers",
    "Address": "420 Route 34, Suite 301  PO Box 488  Colts Neck, NJ 07722",
    "URL": "http://www.jvincent.com/",
    "Phone": "(732) 256-4410",
    "Longitude": -74.1754652,
    "Latitude": 40.2922357,
    "Status": "Disable"
  },
  {
    "ID": 263,
    "Title": "Diamonds on Wabash",
    "Address": "15 S. Wabash Ave.  Chicago, Illinois 60603",
    "URL": "http://www.diamondsonwabash.com/",
    "Phone": "(312) 332-3133",
    "Longitude": -87.6256962,
    "Latitude": 41.8816573,
    "Status": "Disable"
  },
  {
    "ID": 264,
    "Title": "Elegant Slumming Fine Jewelry",
    "Address": "33 Baltimore Ave.  Rehoboth Beach, DE 19971",
    "URL": "http://www.elegantslumming.com/",
    "Phone": "(302) 227-5551",
    "Longitude": -75.079825,
    "Latitude": 38.717432,
    "Status": "Enable"
  },
  {
    "ID": 265,
    "Title": "Jeffrey Private Jeweler",
    "Address": "599 Tamiami Trail N. Suite 200  Naples, Fl 34102",
    "URL": "http://www.jeffreyjewels.com/",
    "Phone": "(239) 434-7075",
    "Longitude": -81.7970082,
    "Latitude": 26.1533764,
    "Status": "Disable"
  },
  {
    "ID": 267,
    "Title": "Eloquence Fine Jewelry and Gifts",
    "Address": "11801 US-1  North Palm Beach, FL 33408",
    "URL": "http://eloquencejewelers.com/",
    "Phone": "(561) 626-2313",
    "Longitude": -80.0599317,
    "Latitude": 26.8493046,
    "Status": "Disable"
  },
  {
    "ID": 268,
    "Title": "Will Jewelers",
    "Address": "7814 Carnegie Blvd  Fort Wayne, IN 46804",
    "URL": "http://www.willjewelers.com/",
    "Phone": "(260) 432-5126",
    "Longitude": -85.2451591,
    "Latitude": 41.0737969,
    "Status": "Disable"
  },
  {
    "ID": 269,
    "Title": "Will Jewelers",
    "Address": "Maysville Pointe Shoppes  10146 Maysville Rd  Fort Wayne, IN 46815",
    "URL": "http://www.willjewelers.com/",
    "Phone": "(260)493-2026",
    "Longitude": -85.0103717,
    "Latitude": 41.1269737,
    "Status": "Disable"
  },
  {
    "ID": 270,
    "Title": "Zavius Jewelers",
    "Address": "2636 McFarland Rd  Rockford, IL 61107",
    "URL": "http://zavius.com/",
    "Phone": "(815) 654-4000",
    "Longitude": -88.9788553,
    "Latitude": 42.2986408,
    "Status": "Disable"
  },
  {
    "ID": 272,
    "Title": "Genesis Diamonds",
    "Address": "8060 Montgomery Road  Cincinnati, OH 45236",
    "URL": "http://www.genesisdiamonds.net/",
    "Phone": "(513) 657-3000",
    "Longitude": -84.371065,
    "Latitude": 39.201898,
    "Status": "Enable"
  },
  {
    "ID": 273,
    "Title": "Genesis Diamonds",
    "Address": "3742 Hillsboro Pike  Nashville, TN 37215",
    "URL": "http://www.genesisdiamonds.net/",
    "Phone": "(615) 269-6996",
    "Longitude": -86.810813,
    "Latitude": 36.109111,
    "Status": "Enable"
  },
  {
    "ID": 275,
    "Title": "Genesis Diamonds",
    "Address": "1731 Mallory Lane, Suite 114  Brentwood, TN 37027",
    "URL": "http://www.genesisdiamonds.net/",
    "Phone": "(615) 371-6765",
    "Longitude": -86.816912,
    "Latitude": 35.961165,
    "Status": "Enable"
  },
  {
    "ID": 276,
    "Title": "Sullivan's Jewelers",
    "Address": "2405 West New Haven Avenue  Melbourne, FL 32904",
    "URL": "http://sullivansjewelers.com/",
    "Phone": "(321) 725-3760",
    "Longitude": -80.6613466,
    "Latitude": 28.0783665,
    "Status": "Disable"
  },
  {
    "ID": 277,
    "Title": "Sissy's Log Cabin Fine Jewelry",
    "Address": "1825 North Grant Street  Little Rock, AR 72207",
    "URL": "https://sissyslogcabin.com/",
    "Phone": "(501) 663-0066",
    "Longitude": -92.338945,
    "Latitude": 34.769177,
    "Status": "Enable"
  },
  {
    "ID": 278,
    "Title": "Sissy's Log Cabin Fine Jewelry",
    "Address": "2900 Parkwood Road  Jonesboro, AR 72401",
    "URL": "https://sissyslogcabin.com/",
    "Phone": "(870) 336-0066",
    "Longitude": -90.669996,
    "Latitude": 35.817545,
    "Status": "Enable"
  },
  {
    "ID": 279,
    "Title": "Sissy's Log Cabin Fine Jewelry",
    "Address": "404 Grove Park Road South  Memphis, TN 38117",
    "URL": "https://sissyslogcabin.com/",
    "Phone": "(901) 834-0067",
    "Longitude": -89.911092,
    "Latitude": 35.12012,
    "Status": "Enable"
  },
  {
    "ID": 280,
    "Title": "Murphy's Jewelers",
    "Address": "107 S. Court Square  Magnolia, AR 71753",
    "URL": "http://murphysjewelers.com/",
    "Phone": "(870) 234.3072",
    "Longitude": -93.2408627,
    "Latitude": 33.2664864,
    "Status": "Disable"
  },
  {
    "ID": 281,
    "Title": "Chesterfield Jewelers",
    "Address": "17037 Baxter Road  Chesterfield, MO 63005",
    "URL": "http://www.chesterfieldjewelers.com/",
    "Phone": "(636) 537-5590",
    "Longitude": -90.5779189,
    "Latitude": 38.6662915,
    "Status": "Disable"
  },
  {
    "ID": 283,
    "Title": "Diamonds by Design",
    "Address": "2121 SW Wanamaker Rd, Suite 113  Topeka, KS 66614",
    "URL": "http://dbd.jewelershowcase.com/",
    "Phone": "(785) 271-5605",
    "Longitude": -95.7629413,
    "Latitude": 39.0284931,
    "Status": "Disable"
  },
  {
    "ID": 284,
    "Title": "K. Ari's Diamonds",
    "Address": "1015 Industrial Rd  Emporia, KS 66801",
    "URL": "http://www.karisdiamonds.com/",
    "Phone": "(620) 342-3899",
    "Longitude": -96.2174817,
    "Latitude": 38.4103999,
    "Status": "Disable"
  },
  {
    "ID": 285,
    "Title": "La Mine d'Or Jewellers",
    "Address": "41 Botsford St  Moncton, NB E1C 4W8, Canada",
    "URL": "http://laminedor.ca/",
    "Phone": "+1 506-857-1980",
    "Longitude": -64.7760846,
    "Latitude": 46.0900389,
    "Status": "Disable"
  },
  {
    "ID": 286,
    "Title": "Hemsleys Jewellers",
    "Address": "2355 Route Transcanadienne  Pointe-Claire, QC H9R 5Z5, Canada",
    "URL": "http://www.hemsleys.com/",
    "Phone": "+1 514-694-4600",
    "Longitude": -73.797091,
    "Latitude": 45.479871,
    "Status": "Enable"
  },
  {
    "ID": 287,
    "Title": "J H Young Jewellers",
    "Address": "126 Lynden Rd  Brantford, ON N3R, Canada",
    "URL": "http://www.jhyoung.com/",
    "Phone": "+1 519-752-2330",
    "Longitude": -80.2364444,
    "Latitude": 43.1737595,
    "Status": "Disable"
  },
  {
    "ID": 288,
    "Title": "L.C. Diamonds",
    "Address": "276 Bedford Highway   Suite 101   Halifax, NS, B3M 2K6  Canada",
    "URL": "http://www.lcdiamonds.ca/",
    "Phone": "902-457-4745",
    "Longitude": -63.6503132,
    "Latitude": 44.6780714,
    "Status": "Disable"
  },
  {
    "ID": 289,
    "Title": "Wainwright Jewellers",
    "Address": "318 10 St  Wainwright, AB  T9W 1P6, Canada",
    "URL": "http://www.wainwrightjewellers.com/",
    "Phone": "+1 780-842-3237",
    "Longitude": -110.8598086,
    "Latitude": 52.8350509,
    "Status": "Disable"
  },
  {
    "ID": 290,
    "Title": "Anderson Brothers",
    "Address": "8201 Quaker Ave  Lubbock, TX 79424",
    "URL": "http://www.andersonbrosjewelers.com/",
    "Phone": "(806) 794-7771",
    "Longitude": -101.903769,
    "Latitude": 33.518751,
    "Status": "Enable"
  },
  {
    "ID": 291,
    "Title": "National Jewelry Co Inc",
    "Address": "101 E Reynolds Dr  Ruston, LA 71270",
    "URL": "http://www.nationaljewelrycompany.com/",
    "Phone": "(318) 255-3906",
    "Longitude": -92.6383529,
    "Latitude": 32.5436919,
    "Status": "Disable"
  },
  {
    "ID": 292,
    "Title": "Boudreaux's Fine Jewelers",
    "Address": "701 Metairie Rd  Metairie, LA 70005",
    "URL": "http://boudreauxsjewelers.com/",
    "Phone": "(504) 831-2602",
    "Longitude": -90.13084,
    "Latitude": 29.98866,
    "Status": "Enable"
  },
  {
    "ID": 293,
    "Title": "Montalvo Jewelers",
    "Address": "1910 S 10th St  McAllen, TX 78503",
    "URL": "http://www.montalvojewelers.com/",
    "Phone": "(956) 631-7840",
    "Longitude": -98.233389,
    "Latitude": 26.186836,
    "Status": "Enable"
  },
  {
    "ID": 294,
    "Title": "Continental Diamond",
    "Address": "1600 Utica Avenue South  St. Louis Park, MN 55416",
    "URL": "http://continentaldiamond.com/",
    "Phone": "(952) 593-5602",
    "Longitude": -93.345764,
    "Latitude": 44.966224,
    "Status": "Enable"
  },
  {
    "ID": 297,
    "Title": "Montelongo's Fine Jewelry",
    "Address": "401 University Dr E  College Station, TX 77840",
    "URL": "",
    "Phone": "(979) 691-2019",
    "Longitude": -96.332306,
    "Latitude": 30.630549,
    "Status": "Enable"
  },
  {
    "ID": 298,
    "Title": "Dennis Jewelry",
    "Address": "14701 San Pedro Ave #110  San Antonio, TX 78232",
    "URL": "http://dennisjewelry.com",
    "Phone": "(210)-499-1212",
    "Longitude": -98.479211,
    "Latitude": 29.574827,
    "Status": "Enable"
  },
  {
    "ID": 299,
    "Title": "Salem's Jewelry",
    "Address": "518 U.S. HWY 281  Marble Falls, TX 78654",
    "URL": "http://www.salemsjewelry.com/",
    "Phone": "(830) 693-2212",
    "Longitude": -98.274409,
    "Latitude": 30.57421,
    "Status": "Enable"
  },
  {
    "ID": 300,
    "Title": "Penaloza and Sons",
    "Address": "2001 NW Military Hwy  San Antonio, TX 78213",
    "URL": "http://www.penalozaandsons.com/",
    "Phone": "(210) 340-3536",
    "Longitude": -98.5195393,
    "Latitude": 29.5293941,
    "Status": "Disable"
  },
  {
    "ID": 301,
    "Title": "Di'Amore Fine Jewelers",
    "Address": "4541 W Waco Dr  Waco, TX 76710",
    "URL": "http://www.diamorefinejewelers.com/",
    "Phone": "(254) 776-9877",
    "Longitude": -97.1750064,
    "Latitude": 31.5252652,
    "Status": "Disable"
  },
  {
    "ID": 302,
    "Title": "McCary's Jewelers",
    "Address": "6959 Fern Loop  Shreveport, LA 71105",
    "URL": "http://mccarys.com/",
    "Phone": "(318) 798-3050",
    "Longitude": -93.726073,
    "Latitude": 32.445787,
    "Status": "Enable"
  },
  {
    "ID": 303,
    "Title": "A-Bryan's Jewelers",
    "Address": "4901 Johnston St  Lafayette, LA 70503",
    "URL": "http://abryans.com/",
    "Phone": "(337) 446-4789",
    "Longitude": -92.067824,
    "Latitude": 30.18416,
    "Status": "Enable"
  },
  {
    "ID": 304,
    "Title": "Robert Roth Jewelers",
    "Address": "7513 Jefferson Hwy  Baton Rouge, LA 70806",
    "URL": "http://www.robertrothjewelers.com/",
    "Phone": "(225) 927-9444",
    "Longitude": -91.1095916,
    "Latitude": 30.433647,
    "Status": "Disable"
  },
  {
    "ID": 305,
    "Title": "Fakier Jewelers",
    "Address": "8029 W Main St  Houma, LA 70360",
    "URL": "https://www.fakier.com/",
    "Phone": "(985) 876-6200",
    "Longitude": -90.718004,
    "Latitude": 29.59863,
    "Status": "Enable"
  },
  {
    "ID": 307,
    "Title": "Vincent Anthony Jewelers",
    "Address": "10038 S Sheridan Rd  Tulsa, OK 74133",
    "URL": "http://www.vincentanthony.com/",
    "Phone": "(918) 291-9700",
    "Longitude": -95.9047356,
    "Latitude": 36.017672,
    "Status": "Disable"
  },
  {
    "ID": 308,
    "Title": "Newton's Jewelers",
    "Address": "701 Garrison Ave  Fort Smith, AR 72901",
    "URL": "http://www.newtons-jewelers.com/",
    "Phone": "(479) 782-9123",
    "Longitude": -94.423949,
    "Latitude": 35.386781,
    "Status": "Enable"
  },
  {
    "ID": 309,
    "Title": "Naifeh Fine Jewelry",
    "Address": "9203 North Pennsylvania Avenue  Oklahoma City, OK 73120",
    "URL": "http://www.naifehfinejewelry.com/",
    "Phone": "(405) 607-4323",
    "Longitude": -97.5495079,
    "Latitude": 35.5637205,
    "Status": "Disable"
  },
  {
    "ID": 310,
    "Title": "Genesis Diamonds",
    "Address": "4600 Shelbyville Road  Suite 106  Louisville, KY 40207",
    "URL": "http://www.genesisdiamonds.net/",
    "Phone": "(502) 891-0424",
    "Longitude": -85.630173,
    "Latitude": 38.248025,
    "Status": "Enable"
  },
  {
    "ID": 313,
    "Title": "Skibell Fine Jewelry",
    "Address": "8411 Preston Rd,  Dallas, TX, 75225",
    "URL": "http://www.skibellfinejewelry.com/",
    "Phone": "(214)691-5123",
    "Longitude": -96.8047058,
    "Latitude": 32.8650835,
    "Status": "Disable"
  },
  {
    "ID": 314,
    "Title": "Tenenbaum Jewelers",
    "Address": "4310 Westheimer Rd  Houston, TX 77027",
    "URL": "http://tenenbaumandco.com/",
    "Phone": "(713) 629-7444",
    "Longitude": -95.450658,
    "Latitude": 29.741759,
    "Status": "Enable"
  },
  {
    "ID": 315,
    "Title": "Meyers Jewelers",
    "Address": "1494 Stringtown Rd,  Grove City  Ohio 43123",
    "URL": "http://www.meyersjewelers.com/",
    "Phone": "(614) 594-0230",
    "Longitude": -83.0374382,
    "Latitude": 39.8785736,
    "Status": "Disable"
  },
  {
    "ID": 317,
    "Title": "Geoffrey's Diamonds",
    "Address": "626 Walnut St., Suite 212,   San Carlos, CA 94070",
    "URL": "http://geoffreysdiamonds.com/",
    "Phone": "800-989-3755",
    "Longitude": -122.2616224,
    "Latitude": 37.5050698,
    "Status": "Disable"
  },
  {
    "ID": 318,
    "Title": "CH Premier Jewelers",
    "Address": "2855 Stevens Creek Boulevard, Suite 1251  Santa Clara, CA 95050",
    "URL": "http://chpremier.com",
    "Phone": "(408) 983-2688",
    "Longitude": -121.945615,
    "Latitude": 37.325845,
    "Status": "Enable"
  },
  {
    "ID": 319,
    "Title": "Holland's Jewelry",
    "Address": "501 W Beauregard Ave  San Angelo, TX 76903",
    "URL": "http://hollandjewelry.com/",
    "Phone": "(800) 232-1918",
    "Longitude": -100.446069,
    "Latitude": 31.459384,
    "Status": "Enable"
  },
  {
    "ID": 320,
    "Title": "Marchesa Jewelry",
    "Address": "17 Mile Dr  Pebble Beach, CA 93953",
    "URL": "http://www.marchesajewelry.com/",
    "Phone": "(831) 625-3129",
    "Longitude": -121.948717,
    "Latitude": 36.572758,
    "Status": "Enable"
  },
  {
    "ID": 321,
    "Title": "Nederland Jewelers",
    "Address": "3308 HWY 365  Nederland, TX 77627",
    "URL": "http://nederland-jewelers.com/",
    "Phone": "(409) 724-2045",
    "Longitude": -93.990915,
    "Latitude": 29.949461,
    "Status": "Enable"
  },
  {
    "ID": 322,
    "Title": "Nederland Jewelers",
    "Address": "4010 N. Dowlen Rd  Beaumont, TX 77706",
    "URL": "http://nederland-jewelers.com/",
    "Phone": "(409) 347-4010",
    "Longitude": -94.167814,
    "Latitude": 30.117532,
    "Status": "Enable"
  },
  {
    "ID": 323,
    "Title": "Nederland Jewelers",
    "Address": "4031 Nelson Rd  Lake Charles, LA 70605",
    "URL": "http://nederland-jewelers.com/",
    "Phone": "(337) 478-0901",
    "Longitude": -93.249397,
    "Latitude": 30.184991,
    "Status": "Enable"
  },
  {
    "ID": 324,
    "Title": "Josef's Jewelers",
    "Address": "9030 Poplar Pike, Suite 107  Germantown, TN 38138",
    "URL": "http://josefsjewelers.com",
    "Phone": "(901) 758-1700",
    "Longitude": -89.7618289,
    "Latitude": 35.0634912,
    "Status": "Disable"
  },
  {
    "ID": 325,
    "Title": "Pelz Jewelers",
    "Address": "1206 E Grand Ave   Marshall TX 75670",
    "URL": "http://www.pelzjewelers.com",
    "Phone": "(903) 935-2261",
    "Longitude": -94.3556678,
    "Latitude": 32.5482416,
    "Status": "Disable"
  },
  {
    "ID": 326,
    "Title": "Hal Davis Jewelers",
    "Address": "921 W Jefferson St.  Boise, ID 83702",
    "URL": "http://www.haldavis.com/",
    "Phone": "(208) 343-6151",
    "Longitude": -116.203659,
    "Latitude": 43.618784,
    "Status": "Enable"
  },
  {
    "ID": 328,
    "Title": "Susan Robinson Jewelry",
    "Address": "6009 S Broadway Ave.  Tyler, TX 75703",
    "URL": "https://www.susanrobinsonjewelry.com/",
    "Phone": "(903) 581-5530",
    "Longitude": -95.3049369,
    "Latitude": 32.2843837,
    "Status": "Disable"
  },
  {
    "ID": 329,
    "Title": "Sissy's Log Cabin Fine Jewelry",
    "Address": "2319 S CAMDEN RD  PINE BLUFF, AR 71603",
    "URL": "https://sissyslogcabin.com/",
    "Phone": "(870) 879-3040",
    "Longitude": -92.043586,
    "Latitude": 34.205289,
    "Status": "Enable"
  },
  {
    "ID": 330,
    "Title": "Occasions Fine Jewelry",
    "Address": "2308 West Loop 250 N  Midland, TX 79705",
    "URL": "http://www.occasionsfinejewelry.com/",
    "Phone": "(432) 684-0510",
    "Longitude": -102.1140131,
    "Latitude": 32.0385516,
    "Status": "Disable"
  },
  {
    "ID": 331,
    "Title": "Quenan's Jewelers",
    "Address": "700 S Austin Ave #100  Georgetown, TX 78626",
    "URL": "https://www.quenansjewelers.com/",
    "Phone": "(512) 869-7659",
    "Longitude": -97.6783601,
    "Latitude": 30.6373351,
    "Status": "Disable"
  },
  {
    "ID": 332,
    "Title": "Benold's Jewelers",
    "Address": "2900 W Anderson Ln.,  Austin, TX 78757",
    "URL": "http://www.benolds.com/",
    "Phone": "(512) 452-6491",
    "Longitude": -97.73793,
    "Latitude": 30.3599,
    "Status": "Enable"
  },
  {
    "ID": 333,
    "Title": "Markman's Diamonds and Fine Jewelry",
    "Address": "6932 Kingston Pike  Knoxville, TN 37919",
    "URL": "http://www.markmansdiamonds.com/",
    "Phone": "(865) 584-0247",
    "Longitude": -84.0220733,
    "Latitude": 35.9317309,
    "Status": "Disable"
  },
  {
    "ID": 334,
    "Title": "Grogan Jewelers",
    "Address": "1800 Galleria Blvd Ste 1300  Franklin, TN 37067",
    "URL": "http://www.groganjewelers.com/",
    "Phone": "(615) 716-8626",
    "Longitude": -86.8135376,
    "Latitude": 35.9571186,
    "Status": "Disable"
  },
  {
    "ID": 335,
    "Title": "Bob Richards Jewelers",
    "Address": "1696 South Germantown Road  Germantown, TN 38138",
    "URL": "http://www.bobrichardsjewelers.com/",
    "Phone": "(901) 751-8052",
    "Longitude": -89.804006,
    "Latitude": 35.1029,
    "Status": "Enable"
  },
  {
    "ID": 336,
    "Title": "Smith's Fine Jewelry",
    "Address": "950 Echo Ln #200  Houston, TX 77024",
    "URL": "http://smiths-fine-jewelry.business.site/",
    "Phone": "(832) 871-5550",
    "Longitude": -95.5204848,
    "Latitude": 29.7818717,
    "Status": "Disable"
  },
  {
    "ID": 337,
    "Title": "Marc Samuels Jewelers",
    "Address": "8549 Gaylord Parkway, Suite #113  Frisco, TX 75034",
    "URL": "http://www.marcsamuelsjewelers.com/",
    "Phone": "(469) 362-8786",
    "Longitude": -96.810084,
    "Latitude": 33.102872,
    "Status": "Enable"
  },
  {
    "ID": 338,
    "Title": "Aucoin Hart Jewelers",
    "Address": "1525 Metairie Rd,   Metairie, LA 70005",
    "URL": "https://www.aucoinhart.com/",
    "Phone": "(504) 834-9999",
    "Longitude": -90.140313,
    "Latitude": 29.986949,
    "Status": "Enable"
  },
  {
    "ID": 340,
    "Title": "White &amp; Ivory Fine Jewelry",
    "Address": "1610 Village Market Blvd SE,  Leesburg, VA 20175",
    "URL": "http://www.whiteivorystore.com/",
    "Phone": "(703) 669-1100",
    "Longitude": -77.522559,
    "Latitude": 39.088343,
    "Status": "Enable"
  },
  {
    "ID": 341,
    "Title": "Tracy Jewelers",
    "Address": "106 N Evergreen Rd,  Spokane Valley, WA 99216",
    "URL": "https://www.tracyjewelers.com/",
    "Phone": "(509) 893-2929",
    "Longitude": -117.217541,
    "Latitude": 47.658117,
    "Status": "Enable"
  },
  {
    "ID": 342,
    "Title": "Marc Samuels Jewelers",
    "Address": "3000 Grapevine Mills Parkway #301  Grapevine, TX 76051",
    "URL": "http://www.marcsamuelsjewelers.com/",
    "Phone": "(972) 691-1786",
    "Longitude": -97.037254,
    "Latitude": 32.968821,
    "Status": "Enable"
  },
  {
    "ID": 343,
    "Title": "R.P. Ellis Fine Jewelry",
    "Address": "228 N Higgins Ave,  Missoula, MT 59802",
    "URL": "https://www.facebook.com/RP-Ellis-Fine-Jewelry-353517584988/",
    "Phone": "(406) 542-8908",
    "Longitude": -113.9939525,
    "Latitude": 46.87154,
    "Status": "Disable"
  },
  {
    "ID": 344,
    "Title": "Robert's Jewelers",
    "Address": "405 Vann Drive, Suite G  Jackson, TN 38305",
    "URL": "http://www.robertsjewelersinc.com/",
    "Phone": "(731) 664-2257",
    "Longitude": -88.8411163,
    "Latitude": 35.6688665,
    "Status": "Disable"
  },
  {
    "ID": 345,
    "Title": "Hannoush Jewelers",
    "Address": "7875 Montgomery Rd,   Cincinnati, OH 45236",
    "URL": "https://www.hannoush.com/",
    "Phone": "(513) 793-6161",
    "Longitude": -84.377147,
    "Latitude": 39.2023243,
    "Status": "Disable"
  },
  {
    "ID": 346,
    "Title": "Hannoush Jewelers",
    "Address": "1441 Tamiami Trail,  Port Charlotte, FL 33948",
    "URL": "https://www.hannoush.com/",
    "Phone": "(941) 624-5428",
    "Longitude": -82.1470547,
    "Latitude": 27.009081,
    "Status": "Disable"
  },
  {
    "ID": 347,
    "Title": "Hannoush Jewelers",
    "Address": "601 Donald Lynch Blvd,   Marlborough, MA 01752",
    "URL": "https://www.hannoush.com/",
    "Phone": "(508) 303-6595",
    "Longitude": -71.6130076,
    "Latitude": 42.3559974,
    "Status": "Disable"
  },
  {
    "ID": 348,
    "Title": "Hannoush Jewelers",
    "Address": "11573 W 95th St,   Overland Park, KS 66214",
    "URL": "https://www.hannoush.com/",
    "Phone": "(913) 888-1211",
    "Longitude": -94.7202429,
    "Latitude": 38.953045,
    "Status": "Disable"
  },
  {
    "ID": 349,
    "Title": "Hannoush Jewelers",
    "Address": "212 Emerald Square,   North Attleborough, MA 02760",
    "URL": "https://www.hannoush.com/",
    "Phone": "(508) 643-9118",
    "Longitude": -71.3499526,
    "Latitude": 41.946852,
    "Status": "Disable"
  },
  {
    "ID": 350,
    "Title": "Kelly Wade Jewelers",
    "Address": "5926 Broadway St.,  San Antonio, TX 78209",
    "URL": "http://www.kellywadejewelers.com/",
    "Phone": "(210) 782-0909",
    "Longitude": -98.46475,
    "Latitude": 29.481103,
    "Status": "Enable"
  },
  {
    "ID": 351,
    "Title": "Hannoush Jewelers",
    "Address": "4601 Eastgate Blvd,   Cincinnati, OH 45245",
    "URL": "https://www.hannoush.com/",
    "Phone": "(513) 752-6400",
    "Longitude": -84.2779049,
    "Latitude": 39.1029177,
    "Status": "Disable"
  },
  {
    "ID": 352,
    "Title": "Diamonds Direct Virginia Beach",
    "Address": "4452 Virginia Beach Blvd,  Virginia Beach, VA 23462",
    "URL": "https://diamondsdirect.com/virginia-beach",
    "Phone": "(757) 837-0288",
    "Longitude": -76.129316,
    "Latitude": 36.843928,
    "Status": "Enable"
  },
  {
    "ID": 353,
    "Title": "Diamonds Direct Indianapolis",
    "Address": "8557 North River Road,  Indianapolis, IN 46240",
    "URL": "https://diamondsdirect.com/indianapolis",
    "Phone": "(317) 575-8555",
    "Longitude": -86.105426,
    "Latitude": 39.911695,
    "Status": "Enable"
  },
  {
    "ID": 354,
    "Title": "Diamonds Direct Jacksonville",
    "Address": "4840 Town Center Parkway   Jacksonville, FL 32246",
    "URL": "https://diamondsdirect.com/jacksonville",
    "Phone": "(904) 515-5959",
    "Longitude": -81.5319164,
    "Latitude": 30.255149,
    "Status": "Enable"
  },
  {
    "ID": 355,
    "Title": "Siebke Hoyt Jewelers",
    "Address": "4800 1st Ave NE  Cedar Rapids, IA 52402",
    "URL": "https://www.siebkehoyt.com/",
    "Phone": "(319) 363-2003",
    "Longitude": -91.6210993,
    "Latitude": 42.0263715,
    "Status": "Enable"
  },
  {
    "ID": 356,
    "Title": "Barmakian Jewelers",
    "Address": "300 Daniel Webster Hwy,  Nashua, NH 03060",
    "URL": "https://www.barmakian.com/",
    "Phone": "(603) 888-7800",
    "Longitude": -71.440211,
    "Latitude": 42.70379,
    "Status": "Enable"
  },
  {
    "ID": 357,
    "Title": "Barmakian Jewelers",
    "Address": "496 Cochituate Rd,   Framingham, MA 01701",
    "URL": "https://www.barmakian.com/",
    "Phone": "(508) 872-5454",
    "Longitude": -71.395096,
    "Latitude": 42.306075,
    "Status": "Enable"
  },
  {
    "ID": 358,
    "Title": "Karat Creations Jewelry",
    "Address": "811 6th Street, Suite 400,  Texas City, TX 77590",
    "URL": "http://karatcreationsjewelry.com/",
    "Phone": "(409) 945-9999",
    "Longitude": -94.90282,
    "Latitude": 29.3932,
    "Status": "Enable"
  },
  {
    "ID": 359,
    "Title": "Salem's Jewelry",
    "Address": "101 S Water St,  Burnet, TX 78611",
    "URL": "http://salemsjewelry.com/",
    "Phone": "(512) 756-8748",
    "Longitude": -98.228382,
    "Latitude": 30.75796,
    "Status": "Enable"
  },
  {
    "ID": 360,
    "Title": "A Cutting Edge â€“ Gallery Of Jewelry",
    "Address": "4507 33rd Ave South  Fargo, ND 58104",
    "URL": "http://www.acuttingedgejewelry.com/",
    "Phone": "(701) 356-7700",
    "Longitude": -96.862918,
    "Latitude": 46.8303061,
    "Status": "Disable"
  },
  {
    "ID": 361,
    "Title": "Calgary Jewellery",
    "Address": "1201 17 Ave SW, Calgary, AB T2T 0C1, Canada",
    "URL": "http://calgaryjewellery.com/",
    "Phone": "+1 403-245-3131",
    "Longitude": -114.090365,
    "Latitude": 51.037547,
    "Status": "Enable"
  },
  {
    "ID": 362,
    "Title": "Trinity Diamonds and Fine Jewelry",
    "Address": "6070 N Oracle Rd,  Tucson, AZ 85704",
    "URL": "http://www.trinitydiamonds.com/",
    "Phone": "(520) 498-5195",
    "Longitude": -110.974824,
    "Latitude": 32.317062,
    "Status": "Enable"
  },
  {
    "ID": 363,
    "Title": "South Coast Jeweler",
    "Address": "3723 S Bristol St,  Santa Ana, CA 92704",
    "URL": "http://www.southcoastjeweler.com/",
    "Phone": "(714) 540-6132",
    "Longitude": -117.8850295,
    "Latitude": 33.6979026,
    "Status": "Disable"
  },
  {
    "ID": 364,
    "Title": "Pierce Custom Jewelers",
    "Address": "1135 TownPark Avenue, Suite 1119  Lake Mary, FL 32746",
    "URL": "https://piercecustomjewelers.com/",
    "Phone": "(407) 805-0470",
    "Longitude": -81.3567173,
    "Latitude": 28.7886359,
    "Status": "Enable"
  },
  {
    "ID": 365,
    "Title": "Unique Jewels",
    "Address": "400 W Bay Area Blvd #C  Webster, TX 77598",
    "URL": "https://www.uniquejewelshouston.com/",
    "Phone": "(281) 332-6552",
    "Longitude": -95.1322411,
    "Latitude": 29.5466743,
    "Status": "Disable"
  },
  {
    "ID": 366,
    "Title": "Fincher &amp; Ozment Jewelers",
    "Address": "1657 N. McFarland Blvd. Suite G3D,  Tuscaloosa, AL 35406",
    "URL": "https://www.fincherandozment.com/",
    "Phone": "(205) 752-3511",
    "Longitude": -87.5421738,
    "Latitude": 33.2344829,
    "Status": "Disable"
  },
  {
    "ID": 367,
    "Title": "Gordon's Gold",
    "Address": "760 Hyde Park Rd.  London, Ontario N6H 5W9  Canada",
    "URL": "http://www.gordonsgold.ca/",
    "Phone": "(519) 473-3988",
    "Longitude": -81.3227,
    "Latitude": 42.9778,
    "Status": "Enable"
  },
  {
    "ID": 368,
    "Title": "Barmakian Jewelers",
    "Address": "333 Washington St  Boston, MA 02108",
    "URL": "https://www.barmakian.com/",
    "Phone": "(617) 227-3724",
    "Longitude": -71.0593874,
    "Latitude": 42.3570839,
    "Status": "Enable"
  },
  {
    "ID": 369,
    "Title": "Blue Heron",
    "Address": "18946 Front Street  Poulsbo, WA 98370",
    "URL": "http://blueheronjewelry.com/",
    "Phone": "(800) 249-1586",
    "Longitude": -122.6461999,
    "Latitude": 47.7349471,
    "Status": "Disable"
  },
  {
    "ID": 370,
    "Title": "Grogan Jewelers",
    "Address": "315 The Bridge Street, Suite 101  Huntsville, AL 35806",
    "URL": "https://www.groganjewelers.com/",
    "Phone": "(256) 837-4808",
    "Longitude": -86.673392,
    "Latitude": 34.715639,
    "Status": "Disable"
  },
  {
    "ID": 371,
    "Title": "Grogan Jewelers",
    "Address": "285 Cox Creek Parkway  Florence, AL 35630",
    "URL": "https://www.groganjewelers.com/",
    "Phone": "(256) 764-4013",
    "Longitude": -87.6312003,
    "Latitude": 34.8356355,
    "Status": "Disable"
  },
  {
    "ID": 372,
    "Title": "Couch's Jewelers",
    "Address": "15 E 10th St,   Anniston, AL 36201",
    "URL": "http://www.couchs.com/",
    "Phone": "(256) 237-4628",
    "Longitude": -85.8290659,
    "Latitude": 33.6573222,
    "Status": "Disable"
  },
  {
    "ID": 373,
    "Title": "Victoria Jewellers",
    "Address": "3665 Quance St.  Regina, SK S4V 3A4  Canada",
    "URL": "http://victoriajewellers.com/",
    "Phone": "1-306-352-4001",
    "Longitude": -104.5313465,
    "Latitude": 50.4431473,
    "Status": "Enable"
  },
  {
    "ID": 374,
    "Title": "Gregorys Jewelers",
    "Address": "940 Third Street North,   Jacksonville Beach, Florida 32250",
    "URL": "http://www.gregorysjewelers.com/",
    "Phone": "(904) 249-4434",
    "Longitude": -81.3941653,
    "Latitude": 30.2971085,
    "Status": "Disable"
  },
  {
    "ID": 375,
    "Title": "Maurices Jewelers",
    "Address": "11865 S. Dixie Hwy  Miami, FL 33156",
    "URL": "https://www.mauricesjewelers.com",
    "Phone": "(305) 253-5740",
    "Longitude": -80.3255468,
    "Latitude": 25.6603301,
    "Status": "Disable"
  },
  {
    "ID": 376,
    "Title": "Meritage Jewelers",
    "Address": "1620 York Road  Suite 105  Lutherville, MD 21093",
    "URL": "https://www.meritagejewelers.com/",
    "Phone": "(410) 832-3434",
    "Longitude": -76.6197,
    "Latitude": 39.424733,
    "Status": "Enable"
  },
  {
    "ID": 377,
    "Title": "Gleim Jewelers",
    "Address": "111 Stanford Shopping Center  Palo Alto, CA 94304",
    "URL": "https://www.gleimjewelers.com/",
    "Phone": "(650) 325-3533",
    "Longitude": -122.171155,
    "Latitude": 37.443663,
    "Status": "Enable"
  },
  {
    "ID": 378,
    "Title": "J. Brooks Jewelers",
    "Address": "152 East Winchester Street  Murray, UT 84107",
    "URL": "https://jbrooksjewelers.com",
    "Phone": "(801) 266-4747",
    "Longitude": -111.8872441,
    "Latitude": 40.6324276,
    "Status": "Enable"
  },
  {
    "ID": 379,
    "Title": "J. Brooks Jewelers",
    "Address": "1791 W Traverse Pkwy, Suite B  Lehi, UT 84043",
    "URL": "https://jbrooksjewelers.com",
    "Phone": "(385) 336-7400",
    "Longitude": -111.8787967,
    "Latitude": 40.4322478,
    "Status": "Enable"
  },
  {
    "ID": 380,
    "Title": "HENRY C. REID &amp; SON, INC.",
    "Address": "1591 POST RD  FAIRFIELD, CT 06824",
    "URL": "http://hcreidjewelers.com/",
    "Phone": "203-255-0447",
    "Longitude": -73.2596504,
    "Latitude": 41.1407968,
    "Status": "Enable"
  },
  {
    "ID": 381,
    "Title": "ALKU Modern Jewelers",
    "Address": "LaCenterra at Cinco Ranch  23501 Cinco Ranch Blvd  Ste. J-110  Katy, TX 77494",
    "URL": "https://www.alkujewelers.com",
    "Phone": "(281) 394-2236",
    "Longitude": -95.7755872,
    "Latitude": 29.7428098,
    "Status": "Enable"
  },
  {
    "ID": 382,
    "Title": "Sabri Guven",
    "Address": "2225 Old Milton Pkwy  Alpharetta, GA 30009",
    "URL": "https://www.sabrifinejewelry.com/",
    "Phone": "(770) 777-4800",
    "Longitude": -84.2930908,
    "Latitude": 34.0703655,
    "Status": "Disable"
  },
  {
    "ID": 383,
    "Title": "Schomburg's Jewelers",
    "Address": "1640 Rollins Way  Columbus, GA 31904",
    "URL": "https://www.schomburgs.com",
    "Phone": "(706) 327-7489",
    "Longitude": -84.9673277,
    "Latitude": 32.5365445,
    "Status": "Disable"
  },
  {
    "ID": 384,
    "Title": "Griner Jewelry Co.",
    "Address": "30 1st Avenue S.E.  Moultrie, GA 31768",
    "URL": "http://www.grinerjewelryco.com/",
    "Phone": "(229) 985-3700",
    "Longitude": -83.7877907,
    "Latitude": 31.1788291,
    "Status": "Disable"
  },
  {
    "ID": 385,
    "Title": "Johnston Jewelers",
    "Address": "10401 SEMINOLE BLVD  SEMINOLE, FL 33778",
    "URL": "https://www.johnstonjewelers.com",
    "Phone": "(727) 260-4005",
    "Longitude": -82.7865967,
    "Latitude": 27.8673995,
    "Status": "Disable"
  },
  {
    "ID": 386,
    "Title": "Yelverton Jewelers",
    "Address": "198A S. Houston Lake Road  Shaheen Plaza  Warner Robins, Georgia 31088",
    "URL": "https://www.yelvertonjewelers.com/",
    "Phone": "(478) 971-1600",
    "Longitude": -83.6779743,
    "Latitude": 32.6119346,
    "Status": "Disable"
  },
  {
    "ID": 387,
    "Title": "Lotus Jewelers",
    "Address": "50 West Littleton Blvd. Suite #302  Littleton, Colorado 80120",
    "URL": "http://lotusjewelers.com",
    "Phone": "(303) 703-4700",
    "Longitude": -104.9885939,
    "Latitude": 39.6130528,
    "Status": "Disable"
  },
  {
    "ID": 388,
    "Title": "Snyder Jewelers",
    "Address": "2201 Ken Pratt Blvd.  Longmont, CO 80501",
    "URL": "https://www.snyderjewelers.com",
    "Phone": "303-776-2992",
    "Longitude": -105.1296344,
    "Latitude": 40.1420983,
    "Status": "Disable"
  },
  {
    "ID": 389,
    "Title": "Williams Jewelers",
    "Address": "2825 East Third Avenue  Denver, CO 80206",
    "URL": "http://www.williamsjewelers.net/",
    "Phone": "(303) 355-4322",
    "Longitude": -104.9538984,
    "Latitude": 39.721247,
    "Status": "Disable"
  },
  {
    "ID": 390,
    "Title": "Williams Jewelers",
    "Address": "5095 South Broadway  Englewood, CO 80113",
    "URL": "http://www.williamsjewelers.net/",
    "Phone": "(303) 761-9700",
    "Longitude": -104.9884019,
    "Latitude": 39.6243827,
    "Status": "Disable"
  },
  {
    "ID": 391,
    "Title": "Harkleroad Diamonds",
    "Address": "7300 Abercorn Street, Suite A  Savannah, GA 31406",
    "URL": "https://www.harkleroaddiamonds.com/",
    "Phone": "(912) 354-3671",
    "Longitude": -81.1141011,
    "Latitude": 32.0096824,
    "Status": "Disable"
  },
  {
    "ID": 392,
    "Title": "The Source, Pittsford",
    "Address": "3300 Monroe Ave, Rochester, NY 14618",
    "URL": "https://www.thesourcejewelers.com/",
    "Phone": "(585) 371-7058",
    "Longitude": -77.5374898,
    "Latitude": 43.1039111,
    "Status": "Enable"
  },
  {
    "ID": 393,
    "Title": "The Source, Greece",
    "Address": "2147 West Ridge Road  Greece, NY 14626",
    "URL": "https://www.thesourcejewelers.com",
    "Phone": "(585) 584-1423",
    "Longitude": -77.6853365,
    "Latitude": 43.2076447,
    "Status": "Enable"
  },
  {
    "ID": 394,
    "Title": "The Source, Eastview Mall",
    "Address": "326 Eastview Mall  Victor, NY 14564",
    "URL": "https://www.thesourcejewelers.com",
    "Phone": "(585) 496-0044",
    "Longitude": -77.4437997,
    "Latitude": 43.0285,
    "Status": "Enable"
  },
  {
    "ID": 395,
    "Title": "Boudreaux's Fine Jewelers",
    "Address": "4550 Hwy. 22  Mandeville, LA 70471",
    "URL": "http://boudreauxsjewelers.com/",
    "Phone": "(985) 626-1666",
    "Longitude": -90.1047965,
    "Latitude": 30.3987604,
    "Status": "Enable"
  },
  {
    "ID": 396,
    "Title": "Boudreaux's Fine Jewelers",
    "Address": "7280 Corporate Blvd.  Baton Rouge, LA 70809",
    "URL": "http://boudreauxsjewelers.com/",
    "Phone": "(225) 928-6868",
    "Longitude": -91.1153646,
    "Latitude": 30.4298375,
    "Status": "Enable"
  },
  {
    "ID": 397,
    "Title": "D. GELLER &amp; SON",
    "Address": "840 Ernest Barrett Parkway, Suite 520  Kennesaw, GA 30144",
    "URL": "https://www.dgeller.com/",
    "Phone": "(770) 955-5995 ext. 2",
    "Longitude": -84.5762203,
    "Latitude": 34.0055116,
    "Status": "Enable"
  },
  {
    "ID": 398,
    "Title": "Gunderson's Jewelers",
    "Address": "5601 28TH Avenue South  Fargo, ND 58104",
    "URL": "https://www.gundersons.com/fargo",
    "Phone": "(701) 532-3020",
    "Longitude": -96.879477,
    "Latitude": 46.8392078,
    "Status": "Enable"
  },
  {
    "ID": 399,
    "Title": "Hingham Jewelers",
    "Address": "35 Whiting St  Hingham, MA 02043",
    "URL": "https://www.hinghamjewelers.com/",
    "Phone": "(781) 749-2108",
    "Longitude": -70.8880345,
    "Latitude": 42.1757296,
    "Status": "Enable"
  },
  {
    "ID": 400,
    "Title": "Francis M. Fine Jewelry",
    "Address": "804 Front St  Conway, AR 72032",
    "URL": "https://francismfinejewelry.com/",
    "Phone": "(501) 358-6522",
    "Longitude": -92.4400787,
    "Latitude": 35.0896834,
    "Status": "Enable"
  },
  {
    "ID": 401,
    "Title": "Javeri Jewelers",
    "Address": "4851 LEGACY DR. SUITE 305  FRISCO, TX 75034",
    "URL": "https://www.myjaveri.com/",
    "Phone": "(817) 821-0373",
    "Longitude": -96.84128,
    "Latitude": 33.1171762,
    "Status": "Enable"
  },
  {
    "ID": 402,
    "Title": "Julianna's Fine Jewelry",
    "Address": "1632 Redwood Highway  Corte Madera, CA 94925",
    "URL": "https://www.juliannasfinejewelry.com/",
    "Phone": "415-924-9711",
    "Longitude": -122.5145605,
    "Latitude": 37.9290366,
    "Status": "Disable"
  },
  {
    "ID": 403,
    "Title": "La Placa  Jewelers",
    "Address": "13 Public Sq  Medina, OH 44256",
    "URL": "http://www.laplacajewelers.com/",
    "Phone": "330-721-4653",
    "Longitude": -81.8642228,
    "Latitude": 41.1386695,
    "Status": "Enable"
  },
  {
    "ID": 404,
    "Title": "Hogue's Jewelry",
    "Address": "202 N Washington  Beeville, TX 78102",
    "URL": "https://hoguesjewelry.com/",
    "Phone": "361-358-3859",
    "Longitude": -97.749466,
    "Latitude": 28.40278,
    "Status": "Enable"
  },
  {
    "ID": 405,
    "Title": "Diamonds Direct - New Orleans",
    "Address": "3230 Severn Ave  Metairie, LA 70002",
    "URL": "https://diamondsdirect.com/new-orleans",
    "Phone": "704-532-9041",
    "Longitude": -90.1596483,
    "Latitude": 30.0083473,
    "Status": "Enable"
  },
  {
    "ID": 406,
    "Title": "Tara's Gold, Inc.",
    "Address": "2719 E Race Ave.  Searcy, AR 72143",
    "URL": "http://www.taracodiamonds.com/",
    "Phone": "501-268-4684",
    "Longitude": -91.7042069,
    "Latitude": 35.2500662,
    "Status": "Disable"
  },
  {
    "ID": 407,
    "Title": "D. GELLER &amp; SON",
    "Address": "2955 Cobb Parkway SE, Suite 230  Atlanta, GA 30339",
    "URL": "https://www.dgeller.com/",
    "Phone": "(770) 955-5995 ext. 1",
    "Longitude": -84.4620993,
    "Latitude": 33.8812699,
    "Status": "Enable"
  },
  {
    "ID": 408,
    "Title": "D. GELLER &amp; SON",
    "Address": "5975 Roswell Road, Suite B225  Sandy Springs, GA 30328",
    "URL": "https://www.dgeller.com/",
    "Phone": "(770) 955-5995 ext. 3",
    "Longitude": -84.3779526,
    "Latitude": 33.91853,
    "Status": "Enable"
  },
  {
    "ID": 409,
    "Title": "Deja &amp; Co. Exquisite Jewels",
    "Address": "14567 Big Basin Way, Saratoga, CA 95070",
    "URL": "https://dejaandco.com/",
    "Phone": "408-872-1177",
    "Longitude": -122.0354882,
    "Latitude": 37.2564174,
    "Status": "Disable"
  },
  {
    "ID": 410,
    "Title": "Sissy's Log Cabin Fine Jewelry",
    "Address": "820 Elsinger Blvd  Conway, AR 72032",
    "URL": "https://sissyslogcabin.com/",
    "Phone": "(501) 273-0066",
    "Longitude": -92.4122643,
    "Latitude": 35.090034,
    "Status": "Enable"
  },
  {
    "ID": 411,
    "Title": "Belle Cose",
    "Address": "48 E Broadway Ave, Jackson, WY 83001",
    "URL": "https://bellecose.com/",
    "Phone": "(307) 733-2640",
    "Longitude": -110.7615916,
    "Latitude": 43.4793349,
    "Status": "Enable"
  },
  {
    "ID": 412,
    "Title": "Betteridge",
    "Address": "239 Greenwich Avenue, Greenwich, CT 06830",
    "URL": "https://www.betteridge.com/",
    "Phone": "(203) 869-0124",
    "Longitude": -73.6257034,
    "Latitude": 41.0267874,
    "Status": "Enable"
  },
  {
    "ID": 413,
    "Title": "Betteridge",
    "Address": "236 Worth Avenue, Palm Beach, FL 33480",
    "URL": "https://www.betteridge.com/",
    "Phone": "(561) 655-5850",
    "Longitude": -80.0380053,
    "Latitude": 26.7007786,
    "Status": "Enable"
  },
  {
    "ID": 414,
    "Title": "Betteridge",
    "Address": "141 East Meadow Drive, Vail, CO 81657",
    "URL": "https://www.betteridge.com/",
    "Phone": "(970) 790-6560",
    "Longitude": -106.3755695,
    "Latitude": 39.6426777,
    "Status": "Enable"
  },
  {
    "ID": 415,
    "Title": "Betteridge",
    "Address": "655 East Durant Avenue, Aspen, CO 81611",
    "URL": "https://www.betteridge.com/",
    "Phone": "(970) 239-3600",
    "Longitude": -106.8173486,
    "Latitude": 39.1867352,
    "Status": "Enable"
  },
  {
    "ID": 416,
    "Title": "Diamonds Direct Dallas",
    "Address": "8127 Preston Rd, Dallas, TX 75225",
    "URL": "https://diamondsdirect.com/",
    "Phone": "(972) 342-6663",
    "Longitude": -96.8044974,
    "Latitude": 32.8619845,
    "Status": "Enable"
  },
  {
    "ID": 417,
    "Title": "Flora Gems",
    "Address": "101 N. Water Street, Decatur, IL 62523",
    "URL": "https://www.floragems.com/",
    "Phone": "(217) 429 - 4111",
    "Longitude": -88.9546573,
    "Latitude": 39.8416406,
    "Status": "Enable"
  },
  {
    "ID": 418,
    "Title": "Flora Gems",
    "Address": "302 W. Kirby Ave, Champaign, IL 61820",
    "URL": "https://www.floragems.com/",
    "Phone": "(217) 305 - 7381",
    "Longitude": -88.2468785,
    "Latitude": 40.0983064,
    "Status": "Enable"
  },
  {
    "ID": 419,
    "Title": "Huntington Jewelers",
    "Address": "7385 W. Sahara Ave, Suite 1, Las Vegas, NV 89117",
    "URL": "https://www.huntingtonjewelers.com/",
    "Phone": "(702) 878 - 3677",
    "Longitude": -115.2538918,
    "Latitude": 36.143521,
    "Status": "Enable"
  },
  {
    "ID": 420,
    "Title": "J. Thomas Jewelers",
    "Address": "2254 Crooks Rd, Rochester Hills, MI 48309",
    "URL": "https://www.jthomasjewelers.com/",
    "Phone": "(248) 299-5250",
    "Longitude": -83.1725289,
    "Latitude": 42.6486757,
    "Status": "Enable"
  },
  {
    "ID": 421,
    "Title": "Jacqueline's Fine Jewelry",
    "Address": "1070 Suncrest Towne Centre Drive, Morgantown, WV 26505",
    "URL": "https://www.jacquelinesfinejewelry.com/",
    "Phone": "(304) 599-6981",
    "Longitude": -79.9433655,
    "Latitude": 39.6528579,
    "Status": "Enable"
  },
  {
    "ID": 422,
    "Title": "Jalin Jewelers",
    "Address": "365, 4021 Preston Rd #625, Plano, TX 75093",
    "URL": "http://jalinjewelers.com/",
    "Phone": "(972) 985-1400",
    "Longitude": -96.795051,
    "Latitude": 33.051766,
    "Status": "Enable"
  },
  {
    "ID": 423,
    "Title": "Kassab",
    "Address": "529 SW Broadway, Portland, OR 97205",
    "URL": "https://www.kassabjewelers.com/",
    "Phone": "(503) 295-0705",
    "Longitude": -122.6793368,
    "Latitude": 45.5203017,
    "Status": "Enable"
  },
  {
    "ID": 424,
    "Title": "Kempf's Jewelers",
    "Address": "336 5th Ave, Indialantic, FL 32903",
    "URL": "https://www.kempfs.com/",
    "Phone": "(321) 724-5820",
    "Longitude": -80.5725962,
    "Latitude": 28.0901021,
    "Status": "Enable"
  },
  {
    "ID": 425,
    "Title": "Leo Hamel Fine Jewelers",
    "Address": "1851 San Diego Ave #130, San Diego, CA 92110",
    "URL": "https://www.leohamel.com/",
    "Phone": "(619) 299-1500",
    "Longitude": -117.1851713,
    "Latitude": 32.7443521,
    "Status": "Enable"
  },
  {
    "ID": 426,
    "Title": "Lesley Ann Jewelers",
    "Address": "4721 Westheimer Rd, Houston, TX 77027",
    "URL": "https://www.lesleyannjewels.com/",
    "Phone": "(713) 871-1074",
    "Longitude": -95.4569866,
    "Latitude": 29.7404911,
    "Status": "Enable"
  },
  {
    "ID": 427,
    "Title": "Louis Anthony",
    "Address": "1775 N Highland Rd, Pittsburgh, PA 15241",
    "URL": "https://www.louisanthony.com/",
    "Phone": "(412) 854-0310",
    "Longitude": -80.0531194,
    "Latitude": 40.3491773,
    "Status": "Enable"
  },
  {
    "ID": 428,
    "Title": "Mathews Jewelers",
    "Address": "126 Strickland Dr, Orange, TX 77630",
    "URL": "",
    "Phone": "(409) 886-7233",
    "Longitude": -93.7645995,
    "Latitude": 30.0971987,
    "Status": "Enable"
  },
  {
    "ID": 429,
    "Title": "Mayors - Aventura Mall",
    "Address": "19575 Biscayne Blvd #177, Aventura, FL 33180",
    "URL": "https://www.mayors.com/",
    "Phone": "(305) 937-1444",
    "Longitude": -80.1436082,
    "Latitude": 25.9571477,
    "Status": "Enable"
  },
  {
    "ID": 430,
    "Title": "Molinelli's Jewelers",
    "Address": "126 N Main St, Pocatello, ID 83204",
    "URL": "https://www.pocatellojeweler.com/",
    "Phone": "(208) 232-0972",
    "Longitude": -112.4507666,
    "Latitude": 42.862596,
    "Status": "Enable"
  },
  {
    "ID": 431,
    "Title": "Packouz Jewelers",
    "Address": "522 SW Broadway, Portland, OR 97205",
    "URL": "https://packouzjewelers.com/",
    "Phone": "(503) 228-3111",
    "Longitude": -122.6789723,
    "Latitude": 45.5202638,
    "Status": "Enable"
  },
  {
    "ID": 432,
    "Title": "Peter Marco",
    "Address": "252 N Rodeo Dr, Beverly Hills, CA 90210",
    "URL": "https://petermarco.com/",
    "Phone": "(310) 278-5353",
    "Longitude": -118.4011133,
    "Latitude": 34.0676439,
    "Status": "Enable"
  },
  {
    "ID": 433,
    "Title": "Powder &amp; Smoke",
    "Address": "1125 Cantrell Road, Suite 205, Little Rock, AR 72212",
    "URL": "https://www.powderandsmoke.com/",
    "Phone": "(501) 225 -5353",
    "Longitude": -92.3185067,
    "Latitude": 34.7697658,
    "Status": "Enable"
  },
  {
    "ID": 434,
    "Title": "Quest Fine Jewelers",
    "Address": "8431 Lee Hwy, Fairfax, VA 22031",
    "URL": "https://www.questjewelers.com/",
    "Phone": "(703) 204-0111",
    "Longitude": -77.2379618,
    "Latitude": 38.8733256,
    "Status": "Enable"
  },
  {
    "ID": 435,
    "Title": "Robann's Jewelers",
    "Address": "73750 El Paseo, Palm Desert, CA 92260",
    "URL": "https://www.robanns.com/designer-jewelry/",
    "Phone": "(760) 341-8142",
    "Longitude": -116.3780969,
    "Latitude": 33.7201088,
    "Status": "Enable"
  },
  {
    "ID": 436,
    "Title": "Sam L. Majors Jewelers",
    "Address": "2200 W Wadley Ave # 18, Midland, TX 79705",
    "URL": "http://samlmajors.com/",
    "Phone": "(432) 687-0078",
    "Longitude": -102.1073383,
    "Latitude": 32.0241714,
    "Status": "Enable"
  },
  {
    "ID": 437,
    "Title": "Seven Oaks",
    "Address": "1680 E #1325, St. George, UT 84790",
    "URL": "https://sevenoaksjewelers.com/",
    "Phone": "(435) 319-6892",
    "Longitude": -113.5476698,
    "Latitude": 37.1131268,
    "Status": "Enable"
  },
  {
    "ID": 438,
    "Title": "Sky Diamonds",
    "Address": "6539 S Las Vegas Blvd c112, Las Vegas, NV 89119",
    "URL": "",
    "Phone": "(702) 527-3775",
    "Longitude": -115.1752997,
    "Latitude": 36.0694039,
    "Status": "Enable"
  },
  {
    "ID": 439,
    "Title": "Spitz",
    "Address": "1333 N Main St, Walnut Creek, CA 94596",
    "URL": "https://www.spitzjewelers.com/",
    "Phone": "(925) 932-8877",
    "Longitude": -122.0605802,
    "Latitude": 37.8979524,
    "Status": "Enable"
  },
  {
    "ID": 440,
    "Title": "Weston Jewelers",
    "Address": "1728 Main St, Weston, FL 33326",
    "URL": "https://www.westonjewelers.com/",
    "Phone": "(888) 389-7990",
    "Longitude": -80.3809576,
    "Latitude": 26.0972821,
    "Status": "Enable"
  },
  {
    "ID": 441,
    "Title": "Rone Regency",
    "Address": "1950 Gunbarrel Rd  Chattanooga, TN 37421",
    "URL": "https://www.roneregency.com/",
    "Phone": "(423) 894-1188",
    "Longitude": -85.1551109,
    "Latitude": 35.0297903,
    "Status": "Enable"
  },
  {
    "ID": 442,
    "Title": "Diamonds Direct - Frisco",
    "Address": "8440 TX-121 Building A, Frisco, TX 75034",
    "URL": "https://diamondsdirect.com/",
    "Phone": "(469) 820 â€“ 4270",
    "Longitude": -96.8116334,
    "Latitude": 33.095531,
    "Status": "Enable"
  },
  {
    "ID": 443,
    "Title": "Diamonds Direct - San Antonio",
    "Address": "15900 La Cantera Pkway Building 18, San Antonio, TX 78256",
    "URL": "https://diamondsdirect.com/",
    "Phone": "(210) 247â€“9197",
    "Longitude": -98.6145043,
    "Latitude": 29.5935397,
    "Status": "Enable"
  },
  {
    "ID": 444,
    "Title": "Diamonds Direct - Charleston",
    "Address": "1911 N Hwy 17, Mt Pleasant, NC 29464",
    "URL": "https://diamondsdirect.com/",
    "Phone": "(843) 606 â€“ 2558",
    "Longitude": -79.826934,
    "Latitude": 32.832268,
    "Status": "Enable"
  }
]